{
"type": "FeatureCollection",
"name": "Police_Stations",
"crs": { "type": "name", "properties": { "name": "urn:ogc:def:crs:OGC:1.3:CRS84" } },
"features": [
{ "type": "Feature", "properties": { "OBJECTID": 1, "CONTACT": "Cmdr  Robin Hoey", "ROOM": " ", "ZIP": 20019, "PHONE": "(202) 698-0880", "FAX": "(202) 398-5397", "NAME": "District 6 (6D)", "ADDRESS": "100 42ND STREET NE", "WEB_URL": "http://mpdc.dc.gov/page/police-districts-and-police-service-areas", "GIS_ID": "pol_1", "TYPE": "Station", "ADDRESS_ID": 294469 }, "geometry": { "type": "Point", "coordinates": [ -76.942887588627841, 38.892491286088415 ] } },
{ "type": "Feature", "properties": { "OBJECTID": 2, "CONTACT": "Insp  Alton Bigelow", "ROOM": " ", "ZIP": 20019, "PHONE": "(202) 698-2088", "FAX": "(202) 584-5397", "NAME": "District 6 Substation (6D-1)", "ADDRESS": "2701 PENNSYLVANIA AVENUE SE", "WEB_URL": "http://mpdc.dc.gov/page/police-districts-and-police-service-areas", "GIS_ID": "pol_2", "TYPE": "Substation", "ADDRESS_ID": 45427 }, "geometry": { "type": "Point", "coordinates": [ -76.968710964213187, 38.872371542255173 ] } },
{ "type": "Feature", "properties": { "OBJECTID": 3, "CONTACT": "Cmdr  Larry McCoy", "ROOM": " ", "ZIP": 20009, "PHONE": "(202) 673-6815", "FAX": "(202) 518-0008", "NAME": "District 3 (3D)", "ADDRESS": "1620 V STREET NW", "WEB_URL": "http://mpdc.dc.gov/page/police-districts-and-police-service-areas", "GIS_ID": "pol_3", "TYPE": "Station", "ADDRESS_ID": 241847 }, "geometry": { "type": "Point", "coordinates": [ -77.037973103870129, 38.917875062936091 ] } },
{ "type": "Feature", "properties": { "OBJECTID": 4, "CONTACT": "Insp  Diane Groomes", "ROOM": " ", "ZIP": 20010, "PHONE": "(202) 576-8222", "FAX": "(202) 576-3350", "NAME": "District 4 Substation", "ADDRESS": "750 PARK ROAD NW", "WEB_URL": "http://mpdc.dc.gov/page/police-districts-and-police-service-areas", "GIS_ID": "pol_4", "TYPE": "Substation", "ADDRESS_ID": 233054 }, "geometry": { "type": "Point", "coordinates": [ -77.025636486243002, 38.932679088943964 ] } },
{ "type": "Feature", "properties": { "OBJECTID": 5, "CONTACT": "Off Myra Jordan", "ROOM": " ", "ZIP": 20009, "PHONE": "(202) 671-3550", "FAX": " ", "NAME": "Deaf and Hard Hearing Liaison Unit", "ADDRESS": "310 MCMILLAN DRIVE NW", "WEB_URL": "http://mpdc.dc.gov/page/police-districts-and-police-service-areas", "GIS_ID": "pol_5", "TYPE": null, "ADDRESS_ID": 299642 }, "geometry": { "type": "Point", "coordinates": [ -77.016562621211833, 38.922189194083003 ] } },
{ "type": "Feature", "properties": { "OBJECTID": 6, "CONTACT": "Cmdr  Jennifer Gree", "ROOM": " ", "ZIP": 20002, "PHONE": "(202) 698-0150", "FAX": "(202) 727-8727 ", "NAME": "District 5 (5D)", "ADDRESS": "1805 BLADENSBURG ROAD NE", "WEB_URL": "http://mpdc.dc.gov/page/police-districts-and-police-service-areas", "GIS_ID": "pol_6", "TYPE": "Station", "ADDRESS_ID": 286486 }, "geometry": { "type": "Point", "coordinates": [ -76.973642327601368, 38.915085047336454 ] } },
{ "type": "Feature", "properties": { "OBJECTID": 7, "CONTACT": "Insp  Andrew Solberg", "ROOM": " ", "ZIP": 20003, "PHONE": "(202) 698-0068", "FAX": "(202) 543-2352", "NAME": "District 1 Substation (1D-1) ", "ADDRESS": "500 E STREET SE", "WEB_URL": "http://mpdc.dc.gov/page/police-districts-and-police-service-areas", "GIS_ID": "pol_7", "TYPE": "Substation", "ADDRESS_ID": 289645 }, "geometry": { "type": "Point", "coordinates": [ -76.999242976217772, 38.883375432073024 ] } },
{ "type": "Feature", "properties": { "OBJECTID": 8, "CONTACT": "Sgt  Juan Espinal", "ROOM": " ", "ZIP": 20009, "PHONE": "(202) 673-4445", "FAX": " ", "NAME": "Latino Liaison Unit", "ADDRESS": "1800 COLUMBIA ROAD NW", "WEB_URL": "http://mpdc.dc.gov/page/police-districts-and-police-service-areas", "GIS_ID": "pol_8", "TYPE": null, "ADDRESS_ID": 235413 }, "geometry": { "type": "Point", "coordinates": [ -77.042867182035593, 38.922167189714081 ] } },
{ "type": "Feature", "properties": { "OBJECTID": 9, "CONTACT": "Sgt Kenny Temsupasiri", "ROOM": " ", "ZIP": 20001, "PHONE": "(202) 724-8009", "FAX": "(202) 727-9422", "NAME": "Asian Liaison Unit", "ADDRESS": "616 H STREET NW", "WEB_URL": "http://mpdc.dc.gov/page/police-districts-and-police-service-areas", "GIS_ID": "pol_10", "TYPE": null, "ADDRESS_ID": 295093 }, "geometry": { "type": "Point", "coordinates": [ -77.020835671881926, 38.899555588443604 ] } },
{ "type": "Feature", "properties": { "OBJECTID": 10, "CONTACT": "Carla Okonkwo, Supervisor", "ROOM": " ", "ZIP": 20020, "PHONE": "(202) 645-9629", "FAX": " ", "NAME": "Family Liaison Specialist Unit", "ADDRESS": "3244 PENNSYLVANIA AVENUE SE", "WEB_URL": "http://mpdc.dc.gov/page/police-districts-and-police-service-areas", "GIS_ID": "pol_12", "TYPE": null, "ADDRESS_ID": 302990 }, "geometry": { "type": "Point", "coordinates": [ -76.959687849399657, 38.869776066673104 ] } },
{ "type": "Feature", "properties": { "OBJECTID": 11, "CONTACT": "Cmdr  Thomas McGuire", "ROOM": " ", "ZIP": 20024, "PHONE": "(202) 698-0555", "FAX": "(202) 727-8503", "NAME": "District 1 (1D)", "ADDRESS": "101 M STREET SW", "WEB_URL": "http://mpdc.dc.gov/page/police-districts-and-police-service-areas", "GIS_ID": "pol_13", "TYPE": "Station", "ADDRESS_ID": 152387 }, "geometry": { "type": "Point", "coordinates": [ -77.012911268898819, 38.876790667686521 ] } },
{ "type": "Feature", "properties": { "OBJECTID": 12, "CONTACT": "Cmdr  Hilton Burton", "ROOM": " ", "ZIP": 20011, "PHONE": "(202) 715-7400", "FAX": "(202) 722-1791", "NAME": "District 4 (4D)", "ADDRESS": "6001 GEORGIA AVENUE NW", "WEB_URL": "http://mpdc.dc.gov/page/police-districts-and-police-service-areas", "GIS_ID": "pol_14", "TYPE": "Station", "ADDRESS_ID": 243485 }, "geometry": { "type": "Point", "coordinates": [ -77.027413279530762, 38.963133248626789 ] } },
{ "type": "Feature", "properties": { "OBJECTID": 13, "CONTACT": "Sgt  Brett A  Parso/Ofc Joe Morquecho", "ROOM": "Room 5125", "ZIP": 20001, "PHONE": "(202) 727-5427", "FAX": "(202) 727-4406", "NAME": "Gay and Lesbian Liaison Unit", "ADDRESS": "300 INDIANA AVENUE NW", "WEB_URL": "http://mpdc.dc.gov/page/police-districts-and-police-service-areas", "GIS_ID": "pol_15", "TYPE": null, "ADDRESS_ID": 279642 }, "geometry": { "type": "Point", "coordinates": [ -77.016540537191403, 38.894145941370624 ] } },
{ "type": "Feature", "properties": { "OBJECTID": 14, "CONTACT": "Cmdr  Robert J  Con", "ROOM": " ", "ZIP": 20016, "PHONE": "(202) 715-7300", "FAX": "(202) 364-3961", "NAME": "District 2 (2D)", "ADDRESS": "3320 IDAHO AVENUE NW", "WEB_URL": "http://mpdc.dc.gov/page/police-districts-and-police-service-areas", "GIS_ID": "pol_18", "TYPE": "Station", "ADDRESS_ID": 222229 }, "geometry": { "type": "Point", "coordinates": [ -77.074840366625921, 38.93485362329001 ] } },
{ "type": "Feature", "properties": { "OBJECTID": 15, "CONTACT": "Cmdr  Joel Maupin", "ROOM": " ", "ZIP": 20020, "PHONE": "(202) 698-1500", "FAX": "(202) 889-3574", "NAME": "District 7 (7D)", "ADDRESS": "2455 ALABAMA AVENUE SE", "WEB_URL": "http://mpdc.dc.gov/page/police-districts-and-police-service-areas", "GIS_ID": "pol_19", "TYPE": "Station", "ADDRESS_ID": 278162 }, "geometry": { "type": "Point", "coordinates": [ -76.969523668272728, 38.853363543136304 ] } }
]
}
