{
    "type": "FeatureCollection",
    "name": "Public_Schools",
    "crs": {
        "type": "name",
        "properties": {
            "name": "urn:ogc:def:crs:OGC:1.3:CRS84"
        }
    },
    "features": [
        {
            "type": "Feature",
            "properties": {
                "OBJECTID": 1,
                "TYPE": "NonStandard",
                "SCHOOL": "QUEEN ANNE GYM",
                "ADDRESS": "1431 2nd Ave N",
                "SE_ANNO_CAD_DATA": null,
                "NAME": "Queen Anne Gym",
                "GRADE": "9-12",
                "CITY": "Seattle",
                "ZIP": "98109",
                "PHONE": null,
                "WEBSITE": null,
                "XCOORD": 1265680.67393531,
                "YCOORD": 234243.29115321999,
                "SITE_USE": "Active",
                "PRJ_ENRLLMNT": null
            },
            "geometry": {
                "type": "Point",
                "coordinates": [
                    -122.353265218350501,
                    47.632022747314181
                ]
            }
        },
        {
            "type": "Feature",
            "properties": {
                "OBJECTID": 2,
                "TYPE": "Elementary",
                "SCHOOL": "BEACON HILL ELEM",
                "ADDRESS": "2025 14th Ave. S",
                "SE_ANNO_CAD_DATA": null,
                "NAME": "Beacon Hill Int'l",
                "GRADE": "K-5",
                "CITY": "Seattle",
                "ZIP": "98144",
                "PHONE": "(206) 252-2700",
                "WEBSITE": "http://beaconhilles.seattleschools.org/",
                "XCOORD": 1274760.89986931,
                "YCOORD": 217081.83991188,
                "SITE_USE": "Active",
                "PRJ_ENRLLMNT": null
            },
            "geometry": {
                "type": "Point",
                "coordinates": [
                    -122.315104889303271,
                    47.585469204873363
                ]
            }
        },
        {
            "type": "Feature",
            "properties": {
                "OBJECTID": 3,
                "TYPE": "Option Elementary",
                "SCHOOL": "BOREN BLDG",
                "ADDRESS": "5950 Delridge Way SW",
                "SE_ANNO_CAD_DATA": null,
                "NAME": "Louisa Boren STEM",
                "GRADE": "K-8",
                "CITY": "Seattle",
                "ZIP": "98106",
                "PHONE": "(206)252-8450",
                "WEBSITE": "http://borenstemk8.seattleschools.org/",
                "XCOORD": 1262888.33995307,
                "YCOORD": 203870.05990505,
                "SITE_USE": "Active",
                "PRJ_ENRLLMNT": null
            },
            "geometry": {
                "type": "Point",
                "coordinates": [
                    -122.362140942013184,
                    47.548619534317019
                ]
            }
        },
        {
            "type": "Feature",
            "properties": {
                "OBJECTID": 4,
                "TYPE": "Elementary",
                "SCHOOL": "CONCORD ELEM",
                "ADDRESS": "723 S Concord St.",
                "SE_ANNO_CAD_DATA": null,
                "NAME": "Concord Int'l",
                "GRADE": "K-5",
                "CITY": "Seattle",
                "ZIP": "98108",
                "PHONE": "(206) 252-8100",
                "WEBSITE": "http://concordes.seattleschools.org/",
                "XCOORD": 1271958.4999623201,
                "YCOORD": 194568.02995272001,
                "SITE_USE": "Active",
                "PRJ_ENRLLMNT": null
            },
            "geometry": {
                "type": "Point",
                "coordinates": [
                    -122.324690584151327,
                    47.523610901696486
                ]
            }
        },
        {
            "type": "Feature",
            "properties": {
                "OBJECTID": 5,
                "TYPE": "Option High School",
                "SCHOOL": "CLEVELAND HIGH SCHOOL",
                "ADDRESS": "5511 15th Ave S",
                "SE_ANNO_CAD_DATA": null,
                "NAME": "Cleveland STEM",
                "GRADE": "9-12",
                "CITY": "Seattle",
                "ZIP": "98108",
                "PHONE": "(206)252-7800",
                "WEBSITE": "http://clevelandhs.seattleschools.org/",
                "XCOORD": 1274823.0001387999,
                "YCOORD": 205005.72987780001,
                "SITE_USE": "Active",
                "PRJ_ENRLLMNT": null
            },
            "geometry": {
                "type": "Point",
                "coordinates": [
                    -122.313911912493623,
                    47.552372061642942
                ]
            }
        },
        {
            "type": "Feature",
            "properties": {
                "OBJECTID": 6,
                "TYPE": "High School",
                "SCHOOL": "NATHAN HALE HIGH SCHOOL",
                "ADDRESS": "10750 30th Ave NE",
                "SE_ANNO_CAD_DATA": null,
                "NAME": "Nathan Hale",
                "GRADE": "9-12",
                "CITY": "Seattle",
                "ZIP": "98125",
                "PHONE": "(206)252-3680",
                "WEBSITE": "http://halehs.seattleschools.org/",
                "XCOORD": 1280683.3699797201,
                "YCOORD": 261536.27987422,
                "SITE_USE": "Active",
                "PRJ_ENRLLMNT": null
            },
            "geometry": {
                "type": "Point",
                "coordinates": [
                    -122.294530733277725,
                    47.707628608319183
                ]
            }
        },
        {
            "type": "Feature",
            "properties": {
                "OBJECTID": 7,
                "TYPE": "Elementary",
                "SCHOOL": "HUGHES",
                "ADDRESS": "7740 34th Ave SW",
                "SE_ANNO_CAD_DATA": null,
                "NAME": "Roxhill at E.C. Hughes",
                "GRADE": "K-5",
                "CITY": "Seattle",
                "ZIP": "98126",
                "PHONE": "(206)252-9570",
                "WEBSITE": "http://roxhilles.seattleschools.org/",
                "XCOORD": 1259615.91998872,
                "YCOORD": 198177.52995155999,
                "SITE_USE": "Interim",
                "PRJ_ENRLLMNT": null
            },
            "geometry": {
                "type": "Point",
                "coordinates": [
                    -122.374927418130284,
                    47.532837659184963
                ]
            }
        },
        {
            "type": "Feature",
            "properties": {
                "OBJECTID": 8,
                "TYPE": "Elementary",
                "SCHOOL": "OLYMPIC HILLS ELEM",
                "ADDRESS": "13018 20th Ave NE",
                "SE_ANNO_CAD_DATA": null,
                "NAME": "Olympic Hills",
                "GRADE": "K-5",
                "CITY": "Seattle",
                "ZIP": "98125",
                "PHONE": "(206)413-2200",
                "WEBSITE": "http://olympichillses.seattleschools.org/",
                "XCOORD": 1277786.2599603101,
                "YCOORD": 267449.85006804997,
                "SITE_USE": "Active",
                "PRJ_ENRLLMNT": null
            },
            "geometry": {
                "type": "Point",
                "coordinates": [
                    -122.306755454102088,
                    47.723686163285066
                ]
            }
        },
        {
            "type": "Feature",
            "properties": {
                "OBJECTID": 9,
                "TYPE": "Elementary",
                "SCHOOL": "KIMBALL ELEM",
                "ADDRESS": "3200 23rd Ave S",
                "SE_ANNO_CAD_DATA": null,
                "NAME": "Kimball",
                "GRADE": "K-5",
                "CITY": "Seattle",
                "ZIP": "98144",
                "PHONE": "(206)252-7280",
                "WEBSITE": "http://kimballes.seattleschools.org/",
                "XCOORD": 1277664.5000332301,
                "YCOORD": 212858.32998621999,
                "SITE_USE": "Active",
                "PRJ_ENRLLMNT": null
            },
            "geometry": {
                "type": "Point",
                "coordinates": [
                    -122.303014488629685,
                    47.574045254751198
                ]
            }
        },
        {
            "type": "Feature",
            "properties": {
                "OBJECTID": 10,
                "TYPE": "Middle School",
                "SCHOOL": "AKI KUROSE",
                "ADDRESS": "3928 S Graham St",
                "SE_ANNO_CAD_DATA": null,
                "NAME": "Aki Kurose",
                "GRADE": "6-8",
                "CITY": "Seattle",
                "ZIP": "98118",
                "PHONE": "(206)252-7700",
                "WEBSITE": "http://kurosems.seattleschools.org/",
                "XCOORD": 1282665.24987422,
                "YCOORD": 202649.16011587999,
                "SITE_USE": "Active",
                "PRJ_ENRLLMNT": null
            },
            "geometry": {
                "type": "Point",
                "coordinates": [
                    -122.28198038188853,
                    47.546321860749558
                ]
            }
        },
        {
            "type": "Feature",
            "properties": {
                "OBJECTID": 11,
                "TYPE": "Elementary",
                "SCHOOL": "CATHARINE BLAINE",
                "ADDRESS": "2550 34th Ave W",
                "SE_ANNO_CAD_DATA": null,
                "NAME": "Catharine Blaine K-8",
                "GRADE": "K-8",
                "CITY": "Seattle",
                "ZIP": "98199",
                "PHONE": "(206)252-1920",
                "WEBSITE": "http://blainek8.seattleschools.org/",
                "XCOORD": 1254417.6600440601,
                "YCOORD": 238203.11984771999,
                "SITE_USE": "Active",
                "PRJ_ENRLLMNT": null
            },
            "geometry": {
                "type": "Point",
                "coordinates": [
                    -122.399262430612396,
                    47.64225735722227
                ]
            }
        },
        {
            "type": "Feature",
            "properties": {
                "OBJECTID": 12,
                "TYPE": "Elementary",
                "SCHOOL": "HAY ELEM",
                "ADDRESS": "201 Garfield St",
                "SE_ANNO_CAD_DATA": null,
                "NAME": "Hay",
                "GRADE": "K-5",
                "CITY": "Seattle",
                "ZIP": "98109",
                "PHONE": "(206)252-2100",
                "WEBSITE": "http://hayes.seattleschools.org/",
                "XCOORD": 1266068.7400883101,
                "YCOORD": 234555.13009647001,
                "SITE_USE": "Active",
                "PRJ_ENRLLMNT": null
            },
            "geometry": {
                "type": "Point",
                "coordinates": [
                    -122.351716580058863,
                    47.63289848357708
                ]
            }
        },
        {
            "type": "Feature",
            "properties": {
                "OBJECTID": 13,
                "TYPE": "Elementary",
                "SCHOOL": "DEARBORN PARK ELEM",
                "ADDRESS": "2820 S Orcas St",
                "SE_ANNO_CAD_DATA": null,
                "NAME": "Dearborn Park Int'l",
                "GRADE": "K-5",
                "CITY": "Seattle",
                "ZIP": "98108",
                "PHONE": "(206)252-6930",
                "WEBSITE": "http://dearbornes.seattleschools.org/",
                "XCOORD": 1279173.7699805601,
                "YCOORD": 204882.4899668,
                "SITE_USE": "Active",
                "PRJ_ENRLLMNT": null
            },
            "geometry": {
                "type": "Point",
                "coordinates": [
                    -122.29628697987927,
                    47.552262359087017
                ]
            }
        },
        {
            "type": "Feature",
            "properties": {
                "OBJECTID": 14,
                "TYPE": "Elementary",
                "SCHOOL": "DECATUR BLDG/DS-2",
                "ADDRESS": "7711 43rd Ave NE",
                "SE_ANNO_CAD_DATA": null,
                "NAME": "Decatur",
                "GRADE": "1-5",
                "CITY": "Seattle",
                "ZIP": "98115",
                "PHONE": "(206)252-3230",
                "WEBSITE": "https://decatures.seattleschools.org/",
                "XCOORD": 1283449.80014239,
                "YCOORD": 253237.61700964,
                "SITE_USE": "Active",
                "PRJ_ENRLLMNT": null
            },
            "geometry": {
                "type": "Point",
                "coordinates": [
                    -122.282661709706929,
                    47.685025453882659
                ]
            }
        },
        {
            "type": "Feature",
            "properties": {
                "OBJECTID": 15,
                "TYPE": "Elementary",
                "SCHOOL": "SANISLO ELEM",
                "ADDRESS": "1812 SW Myrtle St",
                "SE_ANNO_CAD_DATA": null,
                "NAME": "Sanislo",
                "GRADE": "K-5",
                "CITY": "Seattle",
                "ZIP": "98106",
                "PHONE": "(206)252-8380",
                "WEBSITE": "http://sanisloes.seattleschools.org/",
                "XCOORD": 1263683.15004322,
                "YCOORD": 200566.68987139,
                "SITE_USE": "Active",
                "PRJ_ENRLLMNT": null
            },
            "geometry": {
                "type": "Point",
                "coordinates": [
                    -122.358658082288315,
                    47.539608390153305
                ]
            }
        },
        {
            "type": "Feature",
            "properties": {
                "OBJECTID": 16,
                "TYPE": "High School",
                "SCHOOL": "INGRAHAM HIGH SCHOOL",
                "ADDRESS": "1819 N 135th St",
                "SE_ANNO_CAD_DATA": null,
                "NAME": "Ingraham Int'l",
                "GRADE": "9-12",
                "CITY": "Seattle",
                "ZIP": "98133",
                "PHONE": "(206)252-3880",
                "WEBSITE": "http://ingrahamhs.seattleschools.org/",
                "XCOORD": 1270397.75997356,
                "YCOORD": 268327.26990113,
                "SITE_USE": "Active",
                "PRJ_ENRLLMNT": null
            },
            "geometry": {
                "type": "Point",
                "coordinates": [
                    -122.33683812607886,
                    47.725699392815606
                ]
            }
        },
        {
            "type": "Feature",
            "properties": {
                "OBJECTID": 17,
                "TYPE": "Elementary",
                "SCHOOL": "WHITTIER ELEM",
                "ADDRESS": "1320 NW 75th St",
                "SE_ANNO_CAD_DATA": null,
                "NAME": "Whittier",
                "GRADE": "K-5",
                "CITY": "Seattle",
                "ZIP": "98117",
                "PHONE": "(206)252-1650",
                "WEBSITE": "http://whittieres.seattleschools.org/",
                "XCOORD": 1261173.4900363099,
                "YCOORD": 253146.52007897,
                "SITE_USE": "Active",
                "PRJ_ENRLLMNT": null
            },
            "geometry": {
                "type": "Point",
                "coordinates": [
                    -122.373075379303046,
                    47.683589823126795
                ]
            }
        },
        {
            "type": "Feature",
            "properties": {
                "OBJECTID": 19,
                "TYPE": "Option Elementary",
                "SCHOOL": "WILSON-PACIFIC",
                "ADDRESS": "1700 N 90th St",
                "SE_ANNO_CAD_DATA": null,
                "NAME": "Cascadia",
                "GRADE": "K-5",
                "CITY": "Seattle",
                "ZIP": "98103",
                "PHONE": "(206)252-5914",
                "WEBSITE": "http://cascadiaes.seattleschools.org/",
                "XCOORD": 1270067.62513514,
                "YCOORD": 257142.21878046999,
                "SITE_USE": "Active",
                "PRJ_ENRLLMNT": null
            },
            "geometry": {
                "type": "Point",
                "coordinates": [
                    -122.337196351329951,
                    47.695178282124871
                ]
            }
        },
        {
            "type": "Feature",
            "properties": {
                "OBJECTID": 20,
                "TYPE": "Elementary",
                "SCHOOL": "JOHN ROGERS ELEM",
                "ADDRESS": "4030 NE 109th St",
                "SE_ANNO_CAD_DATA": null,
                "NAME": "John Rogers",
                "GRADE": "K-5",
                "CITY": "Seattle",
                "ZIP": "98125",
                "PHONE": "(206)252-4320",
                "WEBSITE": "http://rogerses.seattleschools.org/",
                "XCOORD": 1283118.2401099801,
                "YCOORD": 261416.43989079999,
                "SITE_USE": "Active",
                "PRJ_ENRLLMNT": null
            },
            "geometry": {
                "type": "Point",
                "coordinates": [
                    -122.284633730394503,
                    47.70742643437471
                ]
            }
        },
        {
            "type": "Feature",
            "properties": {
                "OBJECTID": 21,
                "TYPE": "Elementary",
                "SCHOOL": "LAWTON ELEM",
                "ADDRESS": "4000 27th Ave W",
                "SE_ANNO_CAD_DATA": null,
                "NAME": "Lawton",
                "GRADE": "K-5",
                "CITY": "Seattle",
                "ZIP": "98199",
                "PHONE": "(206)252-2130",
                "WEBSITE": "http://lawtones.seattleschools.org/",
                "XCOORD": 1256690.24998707,
                "YCOORD": 243430.78983855,
                "SITE_USE": "Active",
                "PRJ_ENRLLMNT": null
            },
            "geometry": {
                "type": "Point",
                "coordinates": [
                    -122.390474520374028,
                    47.65671240511216
                ]
            }
        },
        {
            "type": "Feature",
            "properties": {
                "OBJECTID": 22,
                "TYPE": "Option Elementary",
                "SCHOOL": "New Bldg",
                "ADDRESS": "7712 40th Ave NE",
                "SE_ANNO_CAD_DATA": null,
                "NAME": "Thornton Creek",
                "GRADE": "K-5",
                "CITY": "Seattle",
                "ZIP": "98115",
                "PHONE": "(206)252-5300",
                "WEBSITE": "http://thorntoncreekes.seattleschools.org/",
                "XCOORD": 1283050.6250877201,
                "YCOORD": 253474.98431705,
                "SITE_USE": "Active",
                "PRJ_ENRLLMNT": null
            },
            "geometry": {
                "type": "Point",
                "coordinates": [
                    -122.284300193083595,
                    47.685655456723779
                ]
            }
        },
        {
            "type": "Feature",
            "properties": {
                "OBJECTID": 23,
                "TYPE": "Elementary",
                "SCHOOL": "GRAHAM HILL ELEM",
                "ADDRESS": "5149 S Graham St",
                "SE_ANNO_CAD_DATA": null,
                "NAME": "Graham Hill",
                "GRADE": "K-5",
                "CITY": "Seattle",
                "ZIP": "98118",
                "PHONE": "(206)252-7140",
                "WEBSITE": "http://grahamhilles.seattleschools.org/",
                "XCOORD": 1285981.6198819,
                "YCOORD": 202381.05008779999,
                "SITE_USE": "Active",
                "PRJ_ENRLLMNT": null
            },
            "geometry": {
                "type": "Point",
                "coordinates": [
                    -122.268534249036293,
                    47.545757309958013
                ]
            }
        },
        {
            "type": "Feature",
            "properties": {
                "OBJECTID": 24,
                "TYPE": "Middle School",
                "SCHOOL": "HAMILTON MIDDLE SCHOOL",
                "ADDRESS": "1610 N 41st St",
                "SE_ANNO_CAD_DATA": null,
                "NAME": "Hamilton Int'l",
                "GRADE": "6-8",
                "CITY": "Seattle",
                "ZIP": "98103",
                "PHONE": "(206)252-5810",
                "WEBSITE": "http://hamiltonms.seattleschools.org/",
                "XCOORD": 1269615.71002847,
                "YCOORD": 243307.75005838001,
                "SITE_USE": "Active",
                "PRJ_ENRLLMNT": null
            },
            "geometry": {
                "type": "Point",
                "coordinates": [
                    -122.338027536628147,
                    47.657080030264531
                ]
            }
        },
        {
            "type": "Feature",
            "properties": {
                "OBJECTID": 25,
                "TYPE": "Elementary",
                "SCHOOL": "NORTH BEACH ELEM",
                "ADDRESS": "9018 24th Ave NW",
                "SE_ANNO_CAD_DATA": null,
                "NAME": "North Beach",
                "GRADE": "K-5",
                "CITY": "Seattle",
                "ZIP": "98117",
                "PHONE": "(206)252-1510",
                "WEBSITE": "http://northbeaches.seattleschools.org/",
                "XCOORD": 1257819.3701041499,
                "YCOORD": 257367.53000962999,
                "SITE_USE": "Active",
                "PRJ_ENRLLMNT": null
            },
            "geometry": {
                "type": "Point",
                "coordinates": [
                    -122.387035500262343,
                    47.694974510719831
                ]
            }
        },
        {
            "type": "Feature",
            "properties": {
                "OBJECTID": 26,
                "TYPE": "Elementary",
                "SCHOOL": "HIGHLAND PARK ELEM",
                "ADDRESS": "1012 SW Trenton St",
                "SE_ANNO_CAD_DATA": null,
                "NAME": "Highland Park",
                "GRADE": "K-5",
                "CITY": "Seattle",
                "ZIP": "98106",
                "PHONE": "(206)252-8240",
                "WEBSITE": "http://highlandparkes.seattleschools.org/",
                "XCOORD": 1266143.1100183099,
                "YCOORD": 195253.18015721001,
                "SITE_USE": "Active",
                "PRJ_ENRLLMNT": null
            },
            "geometry": {
                "type": "Point",
                "coordinates": [
                    -122.348277286993053,
                    47.525177494270892
                ]
            }
        },
        {
            "type": "Feature",
            "properties": {
                "OBJECTID": 27,
                "TYPE": "Option Elementary",
                "SCHOOL": "MONROE BLDG",
                "ADDRESS": "1810 NW 65th St",
                "SE_ANNO_CAD_DATA": null,
                "NAME": "Salmon Bay K-8",
                "GRADE": "K-8",
                "CITY": "Seattle",
                "ZIP": "98117",
                "PHONE": "(206)252-1720",
                "WEBSITE": "http://salmonbayk8.seattleschools.org/",
                "XCOORD": 1259288.5800922201,
                "YCOORD": 250523.77007513001,
                "SITE_USE": "Active",
                "PRJ_ENRLLMNT": null
            },
            "geometry": {
                "type": "Point",
                "coordinates": [
                    -122.380512075997345,
                    47.676297410711975
                ]
            }
        },
        {
            "type": "Feature",
            "properties": {
                "OBJECTID": 28,
                "TYPE": "Elementary",
                "SCHOOL": "JOHN MUIR ELEM",
                "ADDRESS": "3301 S Horton St",
                "SE_ANNO_CAD_DATA": null,
                "NAME": "John Muir",
                "GRADE": "K-5",
                "CITY": "Seattle",
                "ZIP": "98144",
                "PHONE": "(206)252-7400",
                "WEBSITE": "http://muires.seattleschools.org/",
                "XCOORD": 1280727.7399697299,
                "YCOORD": 212506.7798363,
                "SITE_USE": "Active",
                "PRJ_ENRLLMNT": null
            },
            "geometry": {
                "type": "Point",
                "coordinates": [
                    -122.290579862136141,
                    47.57324134730414
                ]
            }
        },
        {
            "type": "Feature",
            "properties": {
                "OBJECTID": 30,
                "TYPE": "Service School",
                "SCHOOL": "ROXHILL ELEM",
                "ADDRESS": "9430 30th Ave SW",
                "SE_ANNO_CAD_DATA": null,
                "NAME": "BRIDGES",
                "GRADE": null,
                "CITY": "Seattle",
                "ZIP": "98126",
                "PHONE": "(206)252-9330",
                "WEBSITE": "https://www.seattleschools.org/cms/One.aspx?portalId=627&pageId=2581181",
                "XCOORD": 1260587.37014556,
                "YCOORD": 192764.06013547,
                "SITE_USE": "Active",
                "PRJ_ENRLLMNT": null
            },
            "geometry": {
                "type": "Point",
                "coordinates": [
                    -122.370558043204383,
                    47.518052915975382
                ]
            }
        },
        {
            "type": "Feature",
            "properties": {
                "OBJECTID": 31,
                "TYPE": "Elementary",
                "SCHOOL": "DUNLAP ELEM",
                "ADDRESS": "4525 S Cloverdale St",
                "SE_ANNO_CAD_DATA": null,
                "NAME": "Dunlap",
                "GRADE": "K-5",
                "CITY": "Seattle",
                "ZIP": "98118",
                "PHONE": "(206)252-7000",
                "WEBSITE": "http://dunlapes.seattleschools.org/",
                "XCOORD": 1284328.1901179,
                "YCOORD": 194835.15015338,
                "SITE_USE": "Active",
                "PRJ_ENRLLMNT": null
            },
            "geometry": {
                "type": "Point",
                "coordinates": [
                    -122.27465565479055,
                    47.524989188994319
                ]
            }
        },
        {
            "type": "Feature",
            "properties": {
                "OBJECTID": 32,
                "TYPE": "High School",
                "SCHOOL": "ROOSEVELT HIGH SCHOOL",
                "ADDRESS": "1410 NE 66th St",
                "SE_ANNO_CAD_DATA": null,
                "NAME": "Roosevelt",
                "GRADE": "9-12",
                "CITY": "Seattle",
                "ZIP": "98115",
                "PHONE": "(206)252-4810",
                "WEBSITE": "http://roosevelths.seattleschools.org/",
                "XCOORD": 1275970.6999431399,
                "YCOORD": 250536.43015480001,
                "SITE_USE": "Active",
                "PRJ_ENRLLMNT": null
            },
            "geometry": {
                "type": "Point",
                "coordinates": [
                    -122.312809534297926,
                    47.677231393255425
                ]
            }
        },
        {
            "type": "Feature",
            "properties": {
                "OBJECTID": 33,
                "TYPE": "Elementary",
                "SCHOOL": "COE ELEM",
                "ADDRESS": "2424 7th Ave W",
                "SE_ANNO_CAD_DATA": null,
                "NAME": "Coe",
                "GRADE": "K-5",
                "CITY": "Seattle",
                "ZIP": "98119",
                "PHONE": "(206)252-2000",
                "WEBSITE": "http://coees.seattleschools.org/",
                "XCOORD": 1262701.86001106,
                "YCOORD": 237401.02007396999,
                "SITE_USE": "Active",
                "PRJ_ENRLLMNT": null
            },
            "geometry": {
                "type": "Point",
                "coordinates": [
                    -122.365599108119341,
                    47.640515986701843
                ]
            }
        },
        {
            "type": "Feature",
            "properties": {
                "OBJECTID": 34,
                "TYPE": "Elementary",
                "SCHOOL": "GENESEE HILL BLDG",
                "ADDRESS": "5013 SW Dakota St",
                "SE_ANNO_CAD_DATA": null,
                "NAME": "Genesee Hill",
                "GRADE": "K-5",
                "CITY": "Seattle",
                "ZIP": "98116",
                "PHONE": "(206)252-9700",
                "WEBSITE": "http://geneseehilles.seattleschools.org/",
                "XCOORD": 1254433.86998539,
                "YCOORD": 210195.87993056001,
                "SITE_USE": "Active",
                "PRJ_ENRLLMNT": null
            },
            "geometry": {
                "type": "Point",
                "coordinates": [
                    -122.396888540608344,
                    47.565492568633104
                ]
            }
        },
        {
            "type": "Feature",
            "properties": {
                "OBJECTID": 35,
                "TYPE": "Option Elementary",
                "SCHOOL": "CEDAR PARK BLDG",
                "ADDRESS": "3737 NE 135th St",
                "SE_ANNO_CAD_DATA": null,
                "NAME": "Cedar Park",
                "GRADE": "K-5",
                "CITY": "Seattle",
                "ZIP": "98125",
                "PHONE": "(206)252-4300",
                "WEBSITE": "http://cedarparkes.seattleschools.org/",
                "XCOORD": 1282531.8679231401,
                "YCOORD": 268135.87592696998,
                "SITE_USE": "Active",
                "PRJ_ENRLLMNT": null
            },
            "geometry": {
                "type": "Point",
                "coordinates": [
                    -122.287466723019833,
                    47.726057789673504
                ]
            }
        },
        {
            "type": "Feature",
            "properties": {
                "OBJECTID": 36,
                "TYPE": "High School",
                "SCHOOL": "WEST SEATTLE HIGH SCHOOL",
                "ADDRESS": "3000 California Ave SW",
                "SE_ANNO_CAD_DATA": null,
                "NAME": "West Seattle High",
                "GRADE": "9-12",
                "CITY": "Seattle",
                "ZIP": "98116",
                "PHONE": "(206)252-8800",
                "WEBSITE": "http://westseattlehs.seattleschools.org/",
                "XCOORD": 1257552.24990347,
                "YCOORD": 214250.75010164001,
                "SITE_USE": "Active",
                "PRJ_ENRLLMNT": null
            },
            "geometry": {
                "type": "Point",
                "coordinates": [
                    -122.384590967812741,
                    47.57677968231782
                ]
            }
        },
        {
            "type": "Feature",
            "properties": {
                "OBJECTID": 37,
                "TYPE": "Elementary",
                "SCHOOL": "ADAMS ELEM",
                "ADDRESS": "6110 28th Ave NW",
                "SE_ANNO_CAD_DATA": null,
                "NAME": "Adams",
                "GRADE": "K-5",
                "CITY": "Seattle",
                "ZIP": "98107",
                "PHONE": "(206)252-1300",
                "WEBSITE": "http://adamses.seattleschools.org/",
                "XCOORD": 1256557.70005532,
                "YCOORD": 249606.47991495999,
                "SITE_USE": "Active",
                "PRJ_ENRLLMNT": null
            },
            "geometry": {
                "type": "Point",
                "coordinates": [
                    -122.391519601725292,
                    47.673632144946858
                ]
            }
        },
        {
            "type": "Feature",
            "properties": {
                "OBJECTID": 38,
                "TYPE": "Elementary",
                "SCHOOL": "FAIRMOUNT PARK ELEM",
                "ADDRESS": "3800 SW Findlay St",
                "SE_ANNO_CAD_DATA": null,
                "NAME": "Fairmount Park",
                "GRADE": "K-5",
                "CITY": "Seattle",
                "ZIP": "98126",
                "PHONE": "(206)252-9300",
                "WEBSITE": "http://fairmountparkes.seattleschools.org/",
                "XCOORD": 1258460.5299110599,
                "YCOORD": 205401.00008463999,
                "SITE_USE": "Active",
                "PRJ_ENRLLMNT": null
            },
            "geometry": {
                "type": "Point",
                "coordinates": [
                    -122.380191232880094,
                    47.552573201351876
                ]
            }
        },
        {
            "type": "Feature",
            "properties": {
                "OBJECTID": 40,
                "TYPE": "Elementary",
                "SCHOOL": "VAN ASSELT ELEM",
                "ADDRESS": "7201 Beacon Ave S",
                "SE_ANNO_CAD_DATA": null,
                "NAME": "Wing Luke",
                "GRADE": "K-5",
                "CITY": "Seattle",
                "ZIP": "98108",
                "PHONE": "(206)252-7630",
                "WEBSITE": "http://lukees.seattleschools.org/",
                "XCOORD": 1279167.8598873899,
                "YCOORD": 199712.3900708,
                "SITE_USE": "Interim",
                "PRJ_ENRLLMNT": null
            },
            "geometry": {
                "type": "Point",
                "coordinates": [
                    -122.295913029379903,
                    47.53809082507081
                ]
            }
        },
        {
            "type": "Feature",
            "properties": {
                "OBJECTID": 41,
                "TYPE": "Elementary",
                "SCHOOL": "HAWTHORNE ELEM",
                "ADDRESS": "4100 39th Ave S",
                "SE_ANNO_CAD_DATA": null,
                "NAME": "Hawthorne",
                "GRADE": "K-5",
                "CITY": "Seattle",
                "ZIP": "98118",
                "PHONE": "(206)252-7210",
                "WEBSITE": "http://hawthornees.seattleschools.org/",
                "XCOORD": 1282452.7001024799,
                "YCOORD": 209797.73997880999,
                "SITE_USE": "Active",
                "PRJ_ENRLLMNT": null
            },
            "geometry": {
                "type": "Point",
                "coordinates": [
                    -122.283386223789563,
                    47.565905183779286
                ]
            }
        },
        {
            "type": "Feature",
            "properties": {
                "OBJECTID": 42,
                "TYPE": "Service School",
                "SCHOOL": "COLUMBIA BLDG/ORCA",
                "ADDRESS": "3528 S Ferdinand St",
                "SE_ANNO_CAD_DATA": null,
                "NAME": "Interagency at Columbia School",
                "GRADE": "9-12",
                "CITY": "Seattle",
                "ZIP": "98118",
                "PHONE": "(206)743-3930",
                "WEBSITE": "http://interagency.seattleschools.org/",
                "XCOORD": 1281478.95008148,
                "YCOORD": 206997.38009396,
                "SITE_USE": "Active",
                "PRJ_ENRLLMNT": null
            },
            "geometry": {
                "type": "Point",
                "coordinates": [
                    -122.287115517700371,
                    47.558179024876644
                ]
            }
        },
        {
            "type": "Feature",
            "properties": {
                "OBJECTID": 43,
                "TYPE": "Option Elementary",
                "SCHOOL": "SEWARD BLDG",
                "ADDRESS": "2500  Franklin Ave E",
                "SE_ANNO_CAD_DATA": null,
                "NAME": "TOPS K-8",
                "GRADE": "K-8",
                "CITY": "Seattle",
                "ZIP": "98102",
                "PHONE": "(206)252-3510",
                "WEBSITE": "http://topsk8.seattleschools.org/",
                "XCOORD": 1272923.5698825601,
                "YCOORD": 237846.30002329999,
                "SITE_USE": "Active",
                "PRJ_ENRLLMNT": null
            },
            "geometry": {
                "type": "Point",
                "coordinates": [
                    -122.324178472284842,
                    47.642286857181873
                ]
            }
        },
        {
            "type": "Feature",
            "properties": {
                "OBJECTID": 45,
                "TYPE": "Elementary",
                "SCHOOL": "RAINIER VIEW ELEM",
                "ADDRESS": "11650 Beacon Ave S",
                "SE_ANNO_CAD_DATA": null,
                "NAME": "Rainier View",
                "GRADE": "K-5",
                "CITY": "Seattle",
                "ZIP": "98178",
                "PHONE": "(206)252-6700",
                "WEBSITE": "http://rainierviewes.seattleschools.org/",
                "XCOORD": 1286987.9098640501,
                "YCOORD": 185254.06990613,
                "SITE_USE": "Active",
                "PRJ_ENRLLMNT": null
            },
            "geometry": {
                "type": "Point",
                "coordinates": [
                    -122.263172064204483,
                    47.498863321283217
                ]
            }
        },
        {
            "type": "Feature",
            "properties": {
                "OBJECTID": 46,
                "TYPE": "Middle School",
                "SCHOOL": "MERCER MIDDLE SCHOOL",
                "ADDRESS": "1600 S Columbian Way",
                "SE_ANNO_CAD_DATA": null,
                "NAME": "Mercer Int'l",
                "GRADE": "6-8",
                "CITY": "Seattle",
                "ZIP": "98108",
                "PHONE": "(206)252-8000",
                "WEBSITE": "http://mercerms.seattleschools.org/",
                "XCOORD": 1275356.92984523,
                "YCOORD": 209286.13995213999,
                "SITE_USE": "Active",
                "PRJ_ENRLLMNT": null
            },
            "geometry": {
                "type": "Point",
                "coordinates": [
                    -122.312083193351867,
                    47.564132743486354
                ]
            }
        },
        {
            "type": "Feature",
            "properties": {
                "OBJECTID": 47,
                "TYPE": "Elementary",
                "SCHOOL": "BROADVIEW-THOMSON",
                "ADDRESS": "13052 Greenwood Ave N",
                "SE_ANNO_CAD_DATA": null,
                "NAME": "Broadview-Thomson K-8",
                "GRADE": "K-8",
                "CITY": "Seattle",
                "ZIP": "98133",
                "PHONE": "(206)252-4080",
                "WEBSITE": "http://broadviewk8.seattleschools.org/",
                "XCOORD": 1266376.49012898,
                "YCOORD": 268016.51986647001,
                "SITE_USE": "Active",
                "PRJ_ENRLLMNT": null
            },
            "geometry": {
                "type": "Point",
                "coordinates": [
                    -122.353148668765485,
                    47.724631108013554
                ]
            }
        },
        {
            "type": "Feature",
            "properties": {
                "OBJECTID": 48,
                "TYPE": "Elementary",
                "SCHOOL": "LOYAL HEIGHTS",
                "ADDRESS": "7735 25th Ave NW",
                "SE_ANNO_CAD_DATA": null,
                "NAME": "Loyal Heights",
                "GRADE": "K-5",
                "CITY": "Seattle",
                "ZIP": "98117",
                "PHONE": "(206)252-6000",
                "WEBSITE": "http://loyalheightses.seattleschools.org/",
                "XCOORD": 1257277.9997958101,
                "YCOORD": 254105.14053705,
                "SITE_USE": "Active",
                "PRJ_ENRLLMNT": null
            },
            "geometry": {
                "type": "Point",
                "coordinates": [
                    -122.388965599635995,
                    47.686002572270503
                ]
            }
        },
        {
            "type": "Feature",
            "properties": {
                "OBJECTID": 49,
                "TYPE": "Elementary",
                "SCHOOL": "SACAJAWEA ELEM",
                "ADDRESS": "9501 20th Ave NE",
                "SE_ANNO_CAD_DATA": null,
                "NAME": "Sacajawea",
                "GRADE": "K-5",
                "CITY": "Seattle",
                "ZIP": "98115",
                "PHONE": "(206)252-5550",
                "WEBSITE": "http://sacajaweaes.seattleschools.org/",
                "XCOORD": 1277433.4201148199,
                "YCOORD": 258249.08008380001,
                "SITE_USE": "Active",
                "PRJ_ENRLLMNT": null
            },
            "geometry": {
                "type": "Point",
                "coordinates": [
                    -122.307472722842164,
                    47.698448543336724
                ]
            }
        },
        {
            "type": "Feature",
            "properties": {
                "OBJECTID": 50,
                "TYPE": "Service School",
                "SCHOOL": "MANN BLDG",
                "ADDRESS": "2410 E Cherry St",
                "SE_ANNO_CAD_DATA": null,
                "NAME": "Nova",
                "GRADE": "9-12",
                "CITY": "Seattle",
                "ZIP": "98122",
                "PHONE": "(206)252-3500",
                "WEBSITE": "http://novahs.seattleschools.org/",
                "XCOORD": 1278419.1300856499,
                "YCOORD": 225386.44010055001,
                "SITE_USE": "Active",
                "PRJ_ENRLLMNT": null
            },
            "geometry": {
                "type": "Point",
                "coordinates": [
                    -122.300925709863336,
                    47.608424175499408
                ]
            }
        },
        {
            "type": "Feature",
            "properties": {
                "OBJECTID": 51,
                "TYPE": "Elementary",
                "SCHOOL": "ARBOR HEIGHTS",
                "ADDRESS": "3701 SW 104th St",
                "SE_ANNO_CAD_DATA": null,
                "NAME": "Arbor Heights",
                "GRADE": "K-5",
                "CITY": "Seattle",
                "ZIP": "98146",
                "PHONE": "(206)252-9250",
                "WEBSITE": "http://arborheightses.seattleschools.org/",
                "XCOORD": 1258789.50005364,
                "YCOORD": 189752.72987205,
                "SITE_USE": "Active",
                "PRJ_ENRLLMNT": null
            },
            "geometry": {
                "type": "Point",
                "coordinates": [
                    -122.377587813407487,
                    47.509700360656957
                ]
            }
        },
        {
            "type": "Feature",
            "properties": {
                "OBJECTID": 52,
                "TYPE": "Elementary",
                "SCHOOL": "HIGH POINT ELEM",
                "ADDRESS": "6760 34th Ave SW",
                "SE_ANNO_CAD_DATA": null,
                "NAME": "West Seattle Elementary",
                "GRADE": "K-5",
                "CITY": "Seattle",
                "ZIP": "98126",
                "PHONE": "(206)252-9450",
                "WEBSITE": "http://westseattlees.seattleschools.org/",
                "XCOORD": 1260035.42013398,
                "YCOORD": 201425.01984763,
                "SITE_USE": "Active",
                "PRJ_ENRLLMNT": null
            },
            "geometry": {
                "type": "Point",
                "coordinates": [
                    -122.373492687302914,
                    47.541761867239842
                ]
            }
        },
        {
            "type": "Feature",
            "properties": {
                "OBJECTID": 53,
                "TYPE": "Middle School",
                "SCHOOL": "WILSON-PACIFIC",
                "ADDRESS": "1330 N 90th St",
                "SE_ANNO_CAD_DATA": null,
                "NAME": "Robert Eagle Staff",
                "GRADE": "6-8",
                "CITY": "Seattle",
                "ZIP": "98103",
                "PHONE": "(206)413-2300",
                "WEBSITE": "http://eaglestaffms.seattleschools.org/",
                "XCOORD": 1269518.9159307301,
                "YCOORD": 257308.57310656001,
                "SITE_USE": "Active",
                "PRJ_ENRLLMNT": null
            },
            "geometry": {
                "type": "Point",
                "coordinates": [
                    -122.340980275726466,
                    47.695236828513657
                ]
            }
        },
        {
            "type": "Feature",
            "properties": {
                "OBJECTID": 54,
                "TYPE": "High School",
                "SCHOOL": "LINCOLN",
                "ADDRESS": "4400 Interlake Ave N",
                "SE_ANNO_CAD_DATA": null,
                "NAME": "Lincoln",
                "GRADE": "9-12",
                "CITY": "Seattle",
                "ZIP": "98103",
                "PHONE": "(206)413-2500",
                "WEBSITE": "https://lincolnhs.seattleschools.org/",
                "XCOORD": 1269243.3000121401,
                "YCOORD": 244366.39984396001,
                "SITE_USE": "Active",
                "PRJ_ENRLLMNT": null
            },
            "geometry": {
                "type": "Point",
                "coordinates": [
                    -122.339622449524484,
                    47.659961776744161
                ]
            }
        },
        {
            "type": "Feature",
            "properties": {
                "OBJECTID": 55,
                "TYPE": "Elementary",
                "SCHOOL": "STEVENS ELEM",
                "ADDRESS": "1242 18th Ave E",
                "SE_ANNO_CAD_DATA": null,
                "NAME": "Stevens",
                "GRADE": "K-5",
                "CITY": "Seattle",
                "ZIP": "98112",
                "PHONE": "(206)252-3400",
                "WEBSITE": "http://stevenses.seattleschools.org/",
                "XCOORD": 1276868.68010256,
                "YCOORD": 233818.91011222001,
                "SITE_USE": "Active",
                "PRJ_ENRLLMNT": null
            },
            "geometry": {
                "type": "Point",
                "coordinates": [
                    -122.307864884618255,
                    47.631456229918442
                ]
            }
        },
        {
            "type": "Feature",
            "properties": {
                "OBJECTID": 56,
                "TYPE": "Option Elementary",
                "SCHOOL": "PINEHURST",
                "ADDRESS": "11530 12th Ave NE",
                "SE_ANNO_CAD_DATA": null,
                "NAME": "Hazel Wolf K-8",
                "GRADE": "K-8",
                "CITY": "Seattle",
                "ZIP": "98125",
                "PHONE": "(206)252-4610",
                "WEBSITE": "http://hazelwolfk8.seattleschools.org/",
                "XCOORD": 1275769.4798731499,
                "YCOORD": 263746.86009872,
                "SITE_USE": "Active",
                "PRJ_ENRLLMNT": null
            },
            "geometry": {
                "type": "Point",
                "coordinates": [
                    -122.314658339084673,
                    47.713430231417391
                ]
            }
        },
        {
            "type": "Feature",
            "properties": {
                "OBJECTID": 57,
                "TYPE": "Option Elementary",
                "SCHOOL": "OLD HAY BLDG",
                "ADDRESS": "2100 4th Ave N",
                "SE_ANNO_CAD_DATA": null,
                "NAME": "Queen Anne",
                "GRADE": "K-5",
                "CITY": "Seattle",
                "ZIP": "98109",
                "PHONE": "(206)252-2480",
                "WEBSITE": "https://queenannees.seattleschools.org/",
                "XCOORD": 1266782.38990773,
                "YCOORD": 236389.04998504999,
                "SITE_USE": "Active",
                "PRJ_ENRLLMNT": null
            },
            "geometry": {
                "type": "Point",
                "coordinates": [
                    -122.348969192218647,
                    47.637963740264951
                ]
            }
        },
        {
            "type": "Feature",
            "properties": {
                "OBJECTID": 58,
                "TYPE": "Middle School",
                "SCHOOL": "WHITMAN MIDDLE SCHOOL",
                "ADDRESS": "9201 15th Ave NW",
                "SE_ANNO_CAD_DATA": null,
                "NAME": "Whitman",
                "GRADE": "6-8",
                "CITY": "Seattle",
                "ZIP": "98117",
                "PHONE": "(206)252-1200",
                "WEBSITE": "http://whitmanms.seattleschools.org/",
                "XCOORD": 1260155.07015714,
                "YCOORD": 257968.80997505999,
                "SITE_USE": "Active",
                "PRJ_ENRLLMNT": null
            },
            "geometry": {
                "type": "Point",
                "coordinates": [
                    -122.377601923085848,
                    47.696751451416937
                ]
            }
        },
        {
            "type": "Feature",
            "properties": {
                "OBJECTID": 59,
                "TYPE": "Service School",
                "SCHOOL": "NORTHWEST CENTER",
                "ADDRESS": "2919 1st Ave W",
                "SE_ANNO_CAD_DATA": null,
                "NAME": "Cascade PPP",
                "GRADE": "K-12",
                "CITY": "Seattle",
                "ZIP": "98119",
                "PHONE": "(206)743-3900",
                "WEBSITE": "http://cppp.seattleschools.org/",
                "XCOORD": 1264463.86993848,
                "YCOORD": 239467.13995747,
                "SITE_USE": "Active",
                "PRJ_ENRLLMNT": null
            },
            "geometry": {
                "type": "Point",
                "coordinates": [
                    -122.358619186177535,
                    47.646275064511933
                ]
            }
        },
        {
            "type": "Feature",
            "properties": {
                "OBJECTID": 61,
                "TYPE": "Option High School",
                "SCHOOL": "SEATTLE CENTER  CENTER HOUSE",
                "ADDRESS": "305 Harrison St",
                "SE_ANNO_CAD_DATA": null,
                "NAME": "Center School",
                "GRADE": "9-12",
                "CITY": "Seattle",
                "ZIP": "98109",
                "PHONE": "(206)252-9850",
                "WEBSITE": "http://centerhs.seattleschools.org/",
                "XCOORD": 1266197.6761821399,
                "YCOORD": 230361.84681639,
                "SITE_USE": "Active",
                "PRJ_ENRLLMNT": null
            },
            "geometry": {
                "type": "Point",
                "coordinates": [
                    -122.35085839479828,
                    47.621411853629652
                ]
            }
        },
        {
            "type": "Feature",
            "properties": {
                "OBJECTID": 62,
                "TYPE": "Middle School",
                "SCHOOL": "WASHINGTON MIDDLE SCHOOL",
                "ADDRESS": "2101 S Jackson St",
                "SE_ANNO_CAD_DATA": null,
                "NAME": "Washington",
                "GRADE": "6-8",
                "CITY": "Seattle",
                "ZIP": "98144",
                "PHONE": "(206)252-2600",
                "WEBSITE": "http://washingtonms.seattleschools.org/",
                "XCOORD": 1277550.9999321401,
                "YCOORD": 221583.78005497,
                "SITE_USE": "Active",
                "PRJ_ENRLLMNT": null
            },
            "geometry": {
                "type": "Point",
                "coordinates": [
                    -122.304149774153188,
                    47.597955686543614
                ]
            }
        },
        {
            "type": "Feature",
            "properties": {
                "OBJECTID": 63,
                "TYPE": "Elementary",
                "SCHOOL": "GREENWOOD ELEM",
                "ADDRESS": "144 NW 80th St",
                "SE_ANNO_CAD_DATA": null,
                "NAME": "Greenwood",
                "GRADE": "K-5",
                "CITY": "Seattle",
                "ZIP": "98117",
                "PHONE": "(206)252-1400",
                "WEBSITE": "http://greenwoodes.seattleschools.org/",
                "XCOORD": 1264429.8601639699,
                "YCOORD": 254418.42993672,
                "SITE_USE": "Active",
                "PRJ_ENRLLMNT": null
            },
            "geometry": {
                "type": "Point",
                "coordinates": [
                    -122.359960300450879,
                    47.687253894096585
                ]
            }
        },
        {
            "type": "Feature",
            "properties": {
                "OBJECTID": 64,
                "TYPE": "Middle School",
                "SCHOOL": "MADISON MIDDLE SCHOOL",
                "ADDRESS": "3429 45th Ave SW",
                "SE_ANNO_CAD_DATA": null,
                "NAME": "Madison",
                "GRADE": "6-8",
                "CITY": "Seattle",
                "ZIP": "98116",
                "PHONE": "(206)252-9200",
                "WEBSITE": "http://madisonms.seattleschools.org/",
                "XCOORD": 1256120.3800638199,
                "YCOORD": 212893.61994189001,
                "SITE_USE": "Active",
                "PRJ_ENRLLMNT": null
            },
            "geometry": {
                "type": "Point",
                "coordinates": [
                    -122.390279684949903,
                    47.572980613135464
                ]
            }
        },
        {
            "type": "Feature",
            "properties": {
                "OBJECTID": 65,
                "TYPE": "Elementary",
                "SCHOOL": "LAURELHURST ELEM",
                "ADDRESS": "4530 46th Ave NE",
                "SE_ANNO_CAD_DATA": null,
                "NAME": "Laurelhurst",
                "GRADE": "K-5",
                "CITY": "Seattle",
                "ZIP": "98105",
                "PHONE": "(206)252-5400",
                "WEBSITE": "http://laurelhurstes.seattleschools.org/",
                "XCOORD": 1284450.6301617301,
                "YCOORD": 244890.6599503,
                "SITE_USE": "Active",
                "PRJ_ENRLLMNT": null
            },
            "geometry": {
                "type": "Point",
                "coordinates": [
                    -122.277963074234151,
                    47.662198034317896
                ]
            }
        },
        {
            "type": "Feature",
            "properties": {
                "OBJECTID": 67,
                "TYPE": "High School",
                "SCHOOL": "RAINIER BEACH HIGH SCHOOL",
                "ADDRESS": "8815 Seward Park Ave S",
                "SE_ANNO_CAD_DATA": null,
                "NAME": "Rainier Beach",
                "GRADE": "9-12",
                "CITY": "Seattle",
                "ZIP": "98118",
                "PHONE": "(206)252-6350",
                "WEBSITE": "http://rainierbeachhs.seattleschools.org",
                "XCOORD": 1286494.9800756399,
                "YCOORD": 194459.62006456,
                "SITE_USE": "Active",
                "PRJ_ENRLLMNT": null
            },
            "geometry": {
                "type": "Point",
                "coordinates": [
                    -122.265858983283962,
                    47.524070764672032
                ]
            }
        },
        {
            "type": "Feature",
            "properties": {
                "OBJECTID": 68,
                "TYPE": "Elementary",
                "SCHOOL": "WEDGWOOD ELEM",
                "ADDRESS": "2720 NE 85th St",
                "SE_ANNO_CAD_DATA": null,
                "NAME": "Wedgwood",
                "GRADE": "K-5",
                "CITY": "Seattle",
                "ZIP": "98115",
                "PHONE": "(206)252-5670",
                "WEBSITE": "http://wedgwoodes.seattleschools.org/",
                "XCOORD": 1279943.7198842301,
                "YCOORD": 255315.14992805,
                "SITE_USE": "Active",
                "PRJ_ENRLLMNT": null
            },
            "geometry": {
                "type": "Point",
                "coordinates": [
                    -122.297053816618785,
                    47.690538045542105
                ]
            }
        },
        {
            "type": "Feature",
            "properties": {
                "OBJECTID": 69,
                "TYPE": "Elementary",
                "SCHOOL": "ALKI ELEM",
                "ADDRESS": "3010 59th Ave SW",
                "SE_ANNO_CAD_DATA": null,
                "NAME": "Alki",
                "GRADE": "K-5",
                "CITY": "Seattle",
                "ZIP": "98116",
                "PHONE": "(206)252-9050",
                "WEBSITE": "http://alkies.seattleschools.org/",
                "XCOORD": 1251820.84010647,
                "YCOORD": 214499.24993272001,
                "SITE_USE": "Active",
                "PRJ_ENRLLMNT": null
            },
            "geometry": {
                "type": "Point",
                "coordinates": [
                    -122.407827173679891,
                    47.5771417239526
                ]
            }
        },
        {
            "type": "Feature",
            "properties": {
                "OBJECTID": 70,
                "TYPE": "Elementary",
                "SCHOOL": "LAFAYETTE ELEM",
                "ADDRESS": "2645 California Ave SW",
                "SE_ANNO_CAD_DATA": null,
                "NAME": "Lafayette",
                "GRADE": "K-5",
                "CITY": "Seattle",
                "ZIP": "98116",
                "PHONE": "(206)252-9500",
                "WEBSITE": "http://lafayettees.seattleschools.org/",
                "XCOORD": 1256919.88010523,
                "YCOORD": 215254.31010239001,
                "SITE_USE": "Active",
                "PRJ_ENRLLMNT": null
            },
            "geometry": {
                "type": "Point",
                "coordinates": [
                    -122.387234546427152,
                    47.579495400018963
                ]
            }
        },
        {
            "type": "Feature",
            "properties": {
                "OBJECTID": 71,
                "TYPE": "Middle School",
                "SCHOOL": "DENNY MIDDLE SCHOOL",
                "ADDRESS": "2601 SW Kenyon St",
                "SE_ANNO_CAD_DATA": null,
                "NAME": "Denny Int'l",
                "GRADE": "6-8",
                "CITY": "Seattle",
                "ZIP": "98126",
                "PHONE": "(206)252-9000",
                "WEBSITE": "http://dennyms.seattleschools.org/",
                "XCOORD": 1261801.9999341399,
                "YCOORD": 197702.00006272001,
                "SITE_USE": "Active",
                "PRJ_ENRLLMNT": null
            },
            "geometry": {
                "type": "Point",
                "coordinates": [
                    -122.36604153075082,
                    47.531653958068382
                ]
            }
        },
        {
            "type": "Feature",
            "properties": {
                "OBJECTID": 72,
                "TYPE": "Elementary",
                "SCHOOL": "LESCHI ELEM",
                "ADDRESS": "135 32nd Ave",
                "SE_ANNO_CAD_DATA": null,
                "NAME": "Leschi",
                "GRADE": "K-5",
                "CITY": "Seattle",
                "ZIP": "98122",
                "PHONE": "(206)252-2950",
                "WEBSITE": "http://leschies.seattleschools.org/",
                "XCOORD": 1280622.7598647301,
                "YCOORD": 223038.45004587999,
                "SITE_USE": "Active",
                "PRJ_ENRLLMNT": null
            },
            "geometry": {
                "type": "Point",
                "coordinates": [
                    -122.291813625457905,
                    47.602103191534269
                ]
            }
        },
        {
            "type": "Feature",
            "properties": {
                "OBJECTID": 73,
                "TYPE": "Elementary",
                "SCHOOL": "GATEWOOD ELEM",
                "ADDRESS": "4320 SW Myrtle St",
                "SE_ANNO_CAD_DATA": null,
                "NAME": "Gatewood",
                "GRADE": "K-5",
                "CITY": "Seattle",
                "ZIP": "98136",
                "PHONE": "(206)252-9400",
                "WEBSITE": "http://gatewoodes.seattleschools.org/",
                "XCOORD": 1256318.7901000499,
                "YCOORD": 200948.50997387999,
                "SITE_USE": "Active",
                "PRJ_ENRLLMNT": null
            },
            "geometry": {
                "type": "Point",
                "coordinates": [
                    -122.388498218918656,
                    47.540250885774796
                ]
            }
        },
        {
            "type": "Feature",
            "properties": {
                "OBJECTID": 75,
                "TYPE": "Elementary",
                "SCHOOL": "VIEWLANDS ELEM",
                "ADDRESS": "10525 3rd Ave NW",
                "SE_ANNO_CAD_DATA": null,
                "NAME": "Viewlands",
                "GRADE": "K-5",
                "CITY": "Seattle",
                "ZIP": "98177",
                "PHONE": "(206)252-4400",
                "WEBSITE": "http://viewlandses.seattleschools.org/",
                "XCOORD": 1264277.49990439,
                "YCOORD": 261250.8299858,
                "SITE_USE": "Active",
                "PRJ_ENRLLMNT": null
            },
            "geometry": {
                "type": "Point",
                "coordinates": [
                    -122.361129445191921,
                    47.705972815071156
                ]
            }
        },
        {
            "type": "Feature",
            "properties": {
                "OBJECTID": 76,
                "TYPE": "Middle School",
                "SCHOOL": "JANE ADDAMS BUILDING",
                "ADDRESS": "11051 34th Ave NE",
                "SE_ANNO_CAD_DATA": null,
                "NAME": "Jane Addams",
                "GRADE": "6-8",
                "CITY": "Seattle",
                "ZIP": "98125",
                "PHONE": "(206)252-4500",
                "WEBSITE": "http://addamsms.seattleschools.org/",
                "XCOORD": 1281073.9800908901,
                "YCOORD": 262373.91008871997,
                "SITE_USE": "Active",
                "PRJ_ENRLLMNT": null
            },
            "geometry": {
                "type": "Point",
                "coordinates": [
                    -122.293009024933781,
                    47.709944861847219
                ]
            }
        },
        {
            "type": "Feature",
            "properties": {
                "OBJECTID": 77,
                "TYPE": "High School",
                "SCHOOL": "BALLARD HIGH SCHOOL",
                "ADDRESS": "1418 NW 65th St",
                "SE_ANNO_CAD_DATA": null,
                "NAME": "Ballard",
                "GRADE": "9-12",
                "CITY": "Seattle",
                "ZIP": "98117",
                "PHONE": "(206)252-1000",
                "WEBSITE": "http://ballardhs.seattleschools.org/",
                "XCOORD": 1260675.9398503201,
                "YCOORD": 250610.24988905,
                "SITE_USE": "Active",
                "PRJ_ENRLLMNT": null
            },
            "geometry": {
                "type": "Point",
                "coordinates": [
                    -122.374888668664838,
                    47.676610768054125
                ]
            }
        },
        {
            "type": "Feature",
            "properties": {
                "OBJECTID": 78,
                "TYPE": "Elementary",
                "SCHOOL": "GREENLAKE ELEM",
                "ADDRESS": "2400 N 65th St",
                "SE_ANNO_CAD_DATA": null,
                "NAME": "Green Lake",
                "GRADE": "K-5",
                "CITY": "Seattle",
                "ZIP": "98103",
                "PHONE": "(206)252-5320",
                "WEBSITE": "http://greenlakees.seattleschools.org/",
                "XCOORD": 1272100.02002047,
                "YCOORD": 250272.03009304,
                "SITE_USE": "Active",
                "PRJ_ENRLLMNT": null
            },
            "geometry": {
                "type": "Point",
                "coordinates": [
                    -122.328497858212202,
                    47.676301609058562
                ]
            }
        },
        {
            "type": "Feature",
            "properties": {
                "OBJECTID": 79,
                "TYPE": "Elementary",
                "SCHOOL": "MAPLE ELEM",
                "ADDRESS": "4925 Corson Ave S",
                "SE_ANNO_CAD_DATA": null,
                "NAME": "Maple",
                "GRADE": "K-5",
                "CITY": "Seattle",
                "ZIP": "98108",
                "PHONE": "(206)252-8310",
                "WEBSITE": "http://maplees.seattleschools.org/",
                "XCOORD": 1273632.24989565,
                "YCOORD": 207127.80010872,
                "SITE_USE": "Active",
                "PRJ_ENRLLMNT": null
            },
            "geometry": {
                "type": "Point",
                "coordinates": [
                    -122.318898884674297,
                    47.558125712577052
                ]
            }
        },
        {
            "type": "Feature",
            "properties": {
                "OBJECTID": 80,
                "TYPE": "Elementary",
                "SCHOOL": "BRYANT ELEM",
                "ADDRESS": "3311 NE 60th St",
                "SE_ANNO_CAD_DATA": null,
                "NAME": "Bryant",
                "GRADE": "K-5",
                "CITY": "Seattle",
                "ZIP": "98115",
                "PHONE": "(206)252-5200",
                "WEBSITE": "http://bryantes.seattleschools.org/",
                "XCOORD": 1281008.3001041401,
                "YCOORD": 248473.99989646999,
                "SITE_USE": "Active",
                "PRJ_ENRLLMNT": null
            },
            "geometry": {
                "type": "Point",
                "coordinates": [
                    -122.292205523965848,
                    47.671841943098556
                ]
            }
        },
        {
            "type": "Feature",
            "properties": {
                "OBJECTID": 81,
                "TYPE": "Service School",
                "SCHOOL": "MINOR ELEM",
                "ADDRESS": "1700 E Union St",
                "SE_ANNO_CAD_DATA": null,
                "NAME": "Seattle World School",
                "GRADE": "6-12",
                "CITY": "Seattle",
                "ZIP": "98122",
                "PHONE": "(206)252-2200",
                "WEBSITE": "http://sws.seattleschools.org/",
                "XCOORD": 1276391.74995406,
                "YCOORD": 227230.85996813999,
                "SITE_USE": "Active",
                "PRJ_ENRLLMNT": null
            },
            "geometry": {
                "type": "Point",
                "coordinates": [
                    -122.309286398387499,
                    47.613373419336227
                ]
            }
        },
        {
            "type": "Feature",
            "properties": {
                "OBJECTID": 82,
                "TYPE": "Elementary",
                "SCHOOL": "OLYMPIC VIEW ELEM",
                "ADDRESS": "504 NE 95th St",
                "SE_ANNO_CAD_DATA": null,
                "NAME": "Olympic View",
                "GRADE": "K-5",
                "CITY": "Seattle",
                "ZIP": "98115",
                "PHONE": "(206)252-5500",
                "WEBSITE": "http://olympicviewes.seattleschools.org/",
                "XCOORD": 1274037.9400291401,
                "YCOORD": 258235.33011129999,
                "SITE_USE": "Active",
                "PRJ_ENRLLMNT": null
            },
            "geometry": {
                "type": "Point",
                "coordinates": [
                    -122.321257870149722,
                    47.698231721030147
                ]
            }
        },
        {
            "type": "Feature",
            "properties": {
                "OBJECTID": 83,
                "TYPE": "Elementary",
                "SCHOOL": "SAND POINT BLDG",
                "ADDRESS": "6208 60th Ave NE",
                "SE_ANNO_CAD_DATA": null,
                "NAME": "Sand Point",
                "GRADE": "K-5",
                "CITY": "Seattle",
                "ZIP": "98115",
                "PHONE": "(206)252-4640",
                "WEBSITE": "http://sandpointes.seattleschools.org/",
                "XCOORD": 1288231.2600676401,
                "YCOORD": 248998.63008080001,
                "SITE_USE": "Active",
                "PRJ_ENRLLMNT": null
            },
            "geometry": {
                "type": "Point",
                "coordinates": [
                    -122.262933222156803,
                    47.673651548343116
                ]
            }
        },
        {
            "type": "Feature",
            "properties": {
                "OBJECTID": 84,
                "TYPE": "Elementary",
                "SCHOOL": "MONTLAKE ELEM",
                "ADDRESS": "2409 22nd Ave E",
                "SE_ANNO_CAD_DATA": null,
                "NAME": "Montlake",
                "GRADE": "K-5",
                "CITY": "Seattle",
                "ZIP": "98112",
                "PHONE": "(206)252-3300",
                "WEBSITE": "http://montlakees.seattleschools.org/",
                "XCOORD": 1277815.3701382999,
                "YCOORD": 237148.64000129999,
                "SITE_USE": "Active",
                "PRJ_ENRLLMNT": null
            },
            "geometry": {
                "type": "Point",
                "coordinates": [
                    -122.304284203182448,
                    47.640632637131866
                ]
            }
        },
        {
            "type": "Feature",
            "properties": {
                "OBJECTID": 85,
                "TYPE": "Elementary",
                "SCHOOL": "MC GILVRA ELEM",
                "ADDRESS": "1617 38th Ave E",
                "SE_ANNO_CAD_DATA": null,
                "NAME": "McGilvra",
                "GRADE": "K-5",
                "CITY": "Seattle",
                "ZIP": "98112",
                "PHONE": "(206)252-3160",
                "WEBSITE": "http://mcgilvraes.seattleschools.org/",
                "XCOORD": 1282564.8799962299,
                "YCOORD": 234667.01996455001,
                "SITE_USE": "Active",
                "PRJ_ENRLLMNT": null
            },
            "geometry": {
                "type": "Point",
                "coordinates": [
                    -122.284831792036755,
                    47.63407775044972
                ]
            }
        },
        {
            "type": "Feature",
            "properties": {
                "OBJECTID": 86,
                "TYPE": "High School",
                "SCHOOL": "FRANKLIN HIGH SCHOOL",
                "ADDRESS": "3013 S Mount Baker Blvd",
                "SE_ANNO_CAD_DATA": null,
                "NAME": "Franklin",
                "GRADE": "9-12",
                "CITY": "Seattle",
                "ZIP": "98144",
                "PHONE": "(206)252-6150",
                "WEBSITE": "http://franklinhs.seattleschools.org/",
                "XCOORD": 1279989.2401343901,
                "YCOORD": 213486.24014770999,
                "SITE_USE": "Active",
                "PRJ_ENRLLMNT": null
            },
            "geometry": {
                "type": "Point",
                "coordinates": [
                    -122.293646399301423,
                    47.575887671201073
                ]
            }
        },
        {
            "type": "Feature",
            "properties": {
                "OBJECTID": 87,
                "TYPE": "Elementary",
                "SCHOOL": "EMERSON ELEM",
                "ADDRESS": "9709 60th Ave S",
                "SE_ANNO_CAD_DATA": null,
                "NAME": "Emerson",
                "GRADE": "K-5",
                "CITY": "Seattle",
                "ZIP": "98118",
                "PHONE": "(206)252-7100",
                "WEBSITE": "http://emersones.seattleschools.org/",
                "XCOORD": 1288216.76993914,
                "YCOORD": 191052.88015889001,
                "SITE_USE": "Active",
                "PRJ_ENRLLMNT": null
            },
            "geometry": {
                "type": "Point",
                "coordinates": [
                    -122.258636146463317,
                    47.514820465441616
                ]
            }
        },
        {
            "type": "Feature",
            "properties": {
                "OBJECTID": 88,
                "TYPE": "Service School",
                "SCHOOL": "VAN ASSELT ELEM",
                "ADDRESS": "7201 Beacon Ave S",
                "SE_ANNO_CAD_DATA": null,
                "NAME": "Early Learning Center",
                "GRADE": "PK",
                "CITY": "Seattle",
                "ZIP": "98108",
                "PHONE": "(206)252-9930",
                "WEBSITE": "https://www.seattleschools.org/cms/one.aspx?pageId=27768105",
                "XCOORD": 1279167.8598873899,
                "YCOORD": 199712.3900708,
                "SITE_USE": "Active",
                "PRJ_ENRLLMNT": null
            },
            "geometry": {
                "type": "Point",
                "coordinates": [
                    -122.295913029379903,
                    47.53809082507081
                ]
            }
        },
        {
            "type": "Feature",
            "properties": {
                "OBJECTID": 89,
                "TYPE": "Option Elementary",
                "SCHOOL": "LATONA ELEM",
                "ADDRESS": "4057 5th Ave NE",
                "SE_ANNO_CAD_DATA": null,
                "NAME": "John Stanford Int'l",
                "GRADE": "K-5",
                "CITY": "Seattle",
                "ZIP": "98105",
                "PHONE": "(206)252-6080",
                "WEBSITE": "http://stanfordes.seattleschools.org/",
                "XCOORD": 1273062.4600247301,
                "YCOORD": 243404.19015420999,
                "SITE_USE": "Active",
                "PRJ_ENRLLMNT": null
            },
            "geometry": {
                "type": "Point",
                "coordinates": [
                    -122.324051869420387,
                    47.657528255504559
                ]
            }
        },
        {
            "type": "Feature",
            "properties": {
                "OBJECTID": 90,
                "TYPE": "High School",
                "SCHOOL": "SEALTH HIGH SCHOOL",
                "ADDRESS": "2600 SW Thistle St",
                "SE_ANNO_CAD_DATA": null,
                "NAME": "Chief Sealth Int'l",
                "GRADE": "9-12",
                "CITY": "Seattle",
                "ZIP": "98126",
                "PHONE": "(206)252-8550",
                "WEBSITE": "http://chiefsealthhs.seattleschools.org/",
                "XCOORD": 1261752.06991589,
                "YCOORD": 196600.49012664001,
                "SITE_USE": "Active",
                "PRJ_ENRLLMNT": null
            },
            "geometry": {
                "type": "Point",
                "coordinates": [
                    -122.36615479880885,
                    47.528632050416462
                ]
            }
        },
        {
            "type": "Feature",
            "properties": {
                "OBJECTID": 91,
                "TYPE": "Option Elementary",
                "SCHOOL": "COOPER BLDG",
                "ADDRESS": "1901 SW Genesee St",
                "SE_ANNO_CAD_DATA": null,
                "NAME": "Pathfinder K-8",
                "GRADE": "K-8",
                "CITY": "Seattle",
                "ZIP": "98106",
                "PHONE": "(206)252-9710",
                "WEBSITE": "http://pathfinderk8.seattleschools.org/",
                "XCOORD": 1264019.7799474001,
                "YCOORD": 209314.77998672001,
                "SITE_USE": "Active",
                "PRJ_ENRLLMNT": null
            },
            "geometry": {
                "type": "Point",
                "coordinates": [
                    -122.357997123375512,
                    47.563604784708865
                ]
            }
        },
        {
            "type": "Feature",
            "properties": {
                "OBJECTID": 92,
                "TYPE": "Elementary",
                "SCHOOL": "COLMAN SITE",
                "ADDRESS": "2401 S Irving St",
                "SE_ANNO_CAD_DATA": null,
                "NAME": "Thurgood Marshall",
                "GRADE": "K-5",
                "CITY": "Seattle",
                "ZIP": "98144",
                "PHONE": "(206)252-2800",
                "WEBSITE": "http://marshalles.seattleschools.org/",
                "XCOORD": 1278563.9401634799,
                "YCOORD": 219011.67004170999,
                "SITE_USE": "Active",
                "PRJ_ENRLLMNT": null
            },
            "geometry": {
                "type": "Point",
                "coordinates": [
                    -122.299846332198072,
                    47.590958548725091
                ]
            }
        },
        {
            "type": "Feature",
            "properties": {
                "OBJECTID": 93,
                "TYPE": "Middle School",
                "SCHOOL": "MCCLURE MIDDLE SCHOOL",
                "ADDRESS": "1915 1st Ave W",
                "SE_ANNO_CAD_DATA": null,
                "NAME": "McClure",
                "GRADE": "6-8",
                "CITY": "Seattle",
                "ZIP": "98119",
                "PHONE": "(206)252-1900",
                "WEBSITE": "http://mcclurems.seattleschools.org/",
                "XCOORD": 1264312.7301489001,
                "YCOORD": 236022.86994313,
                "SITE_USE": "Active",
                "PRJ_ENRLLMNT": null
            },
            "geometry": {
                "type": "Point",
                "coordinates": [
                    -122.358955231109519,
                    47.636826283948004
                ]
            }
        },
        {
            "type": "Feature",
            "properties": {
                "OBJECTID": 94,
                "TYPE": "Option Elementary",
                "SCHOOL": "WHITWORTH ELEM",
                "ADDRESS": "5215 46th Ave S",
                "SE_ANNO_CAD_DATA": null,
                "NAME": "Orca K-8",
                "GRADE": "K-8",
                "CITY": "Seattle",
                "ZIP": "98118",
                "PHONE": "(206)252-6900",
                "WEBSITE": "http://orcak8.seattleschools.org/",
                "XCOORD": 1284210.54993322,
                "YCOORD": 205705.44009255001,
                "SITE_USE": "Active",
                "PRJ_ENRLLMNT": null
            },
            "geometry": {
                "type": "Point",
                "coordinates": [
                    -122.275956418026453,
                    47.554778725663837
                ]
            }
        },
        {
            "type": "Feature",
            "properties": {
                "OBJECTID": 95,
                "TYPE": "Middle School",
                "SCHOOL": "ECKSTEIN MIDDLE SCHOOL",
                "ADDRESS": "3003 NE 75th St",
                "SE_ANNO_CAD_DATA": null,
                "NAME": "Eckstein",
                "GRADE": "6-8",
                "CITY": "Seattle",
                "ZIP": "98115",
                "PHONE": "(206)252-5010",
                "WEBSITE": "http://ecksteinms.seattleschools.org/",
                "XCOORD": 1280398.17993331,
                "YCOORD": 252381.30999522001,
                "SITE_USE": "Active",
                "PRJ_ENRLLMNT": null
            },
            "geometry": {
                "type": "Point",
                "coordinates": [
                    -122.294982661746673,
                    47.682520105628264
                ]
            }
        },
        {
            "type": "Feature",
            "properties": {
                "OBJECTID": 96,
                "TYPE": "Elementary",
                "SCHOOL": "MADRONA",
                "ADDRESS": "1121 33rd Ave",
                "SE_ANNO_CAD_DATA": null,
                "NAME": "Madrona",
                "GRADE": "K-5",
                "CITY": "Seattle",
                "ZIP": "98122",
                "PHONE": "(206)252-3100",
                "WEBSITE": "http://madronak8.seattleschools.org/",
                "XCOORD": 1280925.79009856,
                "YCOORD": 226729.75007795999,
                "SITE_USE": "Active",
                "PRJ_ENRLLMNT": null
            },
            "geometry": {
                "type": "Point",
                "coordinates": [
                    -122.290868905000821,
                    47.612236775301199
                ]
            }
        },
        {
            "type": "Feature",
            "properties": {
                "OBJECTID": 97,
                "TYPE": "Elementary",
                "SCHOOL": "B F DAY ELEM",
                "ADDRESS": "3921 Linden Ave N",
                "SE_ANNO_CAD_DATA": null,
                "NAME": "B.F. Day",
                "GRADE": "K-5",
                "CITY": "Seattle",
                "ZIP": "98103",
                "PHONE": "(206)252-6010",
                "WEBSITE": "http://dayes.seattleschools.org/",
                "XCOORD": 1266864.06986247,
                "YCOORD": 242469.88985747,
                "SITE_USE": "Active",
                "PRJ_ENRLLMNT": null
            },
            "geometry": {
                "type": "Point",
                "coordinates": [
                    -122.349123735788012,
                    47.654635460261375
                ]
            }
        },
        {
            "type": "Feature",
            "properties": {
                "OBJECTID": 98,
                "TYPE": "Elementary",
                "SCHOOL": "GATZERT ELEM",
                "ADDRESS": "1301 E Yesler Way",
                "SE_ANNO_CAD_DATA": null,
                "NAME": "Bailey Gatzert",
                "GRADE": "K-5",
                "CITY": "Seattle",
                "ZIP": "98122",
                "PHONE": "(206)252-2810",
                "WEBSITE": "http://gatzertes.seattleschools.org/",
                "XCOORD": 1274777.68986198,
                "YCOORD": 222820.81990372,
                "SITE_USE": "Active",
                "PRJ_ENRLLMNT": null
            },
            "geometry": {
                "type": "Point",
                "coordinates": [
                    -122.315484720787325,
                    47.601200533424844
                ]
            }
        },
        {
            "type": "Feature",
            "properties": {
                "OBJECTID": 99,
                "TYPE": "Elementary",
                "SCHOOL": "VIEW RIDGE ELEM",
                "ADDRESS": "7047 50th Ave NE",
                "SE_ANNO_CAD_DATA": null,
                "NAME": "View Ridge",
                "GRADE": "K-5",
                "CITY": "Seattle",
                "ZIP": "98115",
                "PHONE": "(206)252-5600",
                "WEBSITE": "http://viewridgees.seattleschools.org/",
                "XCOORD": 1285225.18996431,
                "YCOORD": 251621.50016314001,
                "SITE_USE": "Active",
                "PRJ_ENRLLMNT": null
            },
            "geometry": {
                "type": "Point",
                "coordinates": [
                    -122.275332169000805,
                    47.680687105591048
                ]
            }
        },
        {
            "type": "Feature",
            "properties": {
                "OBJECTID": 101,
                "TYPE": "Elementary",
                "SCHOOL": "BRIGHTON ELEM",
                "ADDRESS": "6725 45th Ave S",
                "SE_ANNO_CAD_DATA": null,
                "NAME": "Martin Luther King Jr",
                "GRADE": "K-5",
                "CITY": "Seattle",
                "ZIP": "98118",
                "PHONE": "(206)252-6770",
                "WEBSITE": "http://kinges.seattleschools.org/",
                "XCOORD": 1283885.5000584,
                "YCOORD": 200955.79998556001,
                "SITE_USE": "Active",
                "PRJ_ENRLLMNT": null
            },
            "geometry": {
                "type": "Point",
                "coordinates": [
                    -122.276911759731945,
                    47.541743206275349
                ]
            }
        },
        {
            "type": "Feature",
            "properties": {
                "OBJECTID": 102,
                "TYPE": "Elementary",
                "SCHOOL": "LOWELL ELEM",
                "ADDRESS": "1058 E Mercer St",
                "SE_ANNO_CAD_DATA": null,
                "NAME": "Lowell",
                "GRADE": "K-5",
                "CITY": "Seattle",
                "ZIP": "98102",
                "PHONE": "(206)252-3020",
                "WEBSITE": "http://lowelles.seattleschools.org/",
                "XCOORD": 1274227.2500179701,
                "YCOORD": 231303.90989288999,
                "SITE_USE": "Active",
                "PRJ_ENRLLMNT": null
            },
            "geometry": {
                "type": "Point",
                "coordinates": [
                    -122.318378915743921,
                    47.624423424162728
                ]
            }
        },
        {
            "type": "Feature",
            "properties": {
                "OBJECTID": 104,
                "TYPE": "Middle School",
                "SCHOOL": "MEANY MIDDLE SCHOOL (EAST)",
                "ADDRESS": "301 21st Ave E",
                "SE_ANNO_CAD_DATA": null,
                "NAME": "Meany",
                "GRADE": "6-8",
                "CITY": "Seattle",
                "ZIP": "98112",
                "PHONE": "(206)413-2100",
                "WEBSITE": "http://meanyms.seattleschools.org/",
                "XCOORD": 1277445.88006364,
                "YCOORD": 230213.14009281,
                "SITE_USE": "Active",
                "PRJ_ENRLLMNT": null
            },
            "geometry": {
                "type": "Point",
                "coordinates": [
                    -122.305244675906764,
                    47.621603154499098
                ]
            }
        },
        {
            "type": "Feature",
            "properties": {
                "OBJECTID": 106,
                "TYPE": "High School",
                "SCHOOL": "GARFIELD HIGH SCHOOL",
                "ADDRESS": "400 23rd Ave",
                "SE_ANNO_CAD_DATA": null,
                "NAME": "Garfield",
                "GRADE": "9-12",
                "CITY": "Seattle",
                "ZIP": "98122",
                "PHONE": "(206)252-2270",
                "WEBSITE": "http://garfieldhs.seattleschools.org/",
                "XCOORD": 1278156.77004606,
                "YCOORD": 224295.25002571999,
                "SITE_USE": "Active",
                "PRJ_ENRLLMNT": null
            },
            "geometry": {
                "type": "Point",
                "coordinates": [
                    -122.30190468822822,
                    47.605419513044005
                ]
            }
        },
        {
            "type": "Feature",
            "properties": {
                "OBJECTID": 107,
                "TYPE": "Option Elementary",
                "SCHOOL": "WILSON-PACIFIC",
                "ADDRESS": "1330 N 90th St",
                "SE_ANNO_CAD_DATA": null,
                "NAME": "Licton Springs K-8",
                "GRADE": "K-8",
                "CITY": "Seattle",
                "ZIP": "98103",
                "PHONE": "(206)413-2400",
                "WEBSITE": "http://lictonspringsk8.seattleschools.org/",
                "XCOORD": 1269518.9159307301,
                "YCOORD": 257308.57310656001,
                "SITE_USE": "Active",
                "PRJ_ENRLLMNT": null
            },
            "geometry": {
                "type": "Point",
                "coordinates": [
                    -122.340980275726466,
                    47.695236828513657
                ]
            }
        },
        {
            "type": "Feature",
            "properties": {
                "OBJECTID": 108,
                "TYPE": "Elementary",
                "SCHOOL": "NORTHGATE ELEM",
                "ADDRESS": "11725 1st Ave NE",
                "SE_ANNO_CAD_DATA": null,
                "NAME": "Northgate",
                "GRADE": "K-5",
                "CITY": "Seattle",
                "ZIP": "98125",
                "PHONE": "(206)252-4180",
                "WEBSITE": "http://northgatees.seattleschools.org/",
                "XCOORD": 1272105.7299828101,
                "YCOORD": 264341.99014205002,
                "SITE_USE": "Active",
                "PRJ_ENRLLMNT": null
            },
            "geometry": {
                "type": "Point",
                "coordinates": [
                    -122.329585046240894,
                    47.714867163660067
                ]
            }
        },
        {
            "type": "Feature",
            "properties": {
                "OBJECTID": 110,
                "TYPE": "Option Elementary",
                "SCHOOL": "MCDONALD BLDG",
                "ADDRESS": "144 NE 54th St",
                "SE_ANNO_CAD_DATA": null,
                "NAME": "McDonald Int'l",
                "GRADE": "K-5",
                "CITY": "Seattle",
                "ZIP": "98105",
                "PHONE": "206-743-3800",
                "WEBSITE": "http://mcdonaldes.seattleschools.org/",
                "XCOORD": 1272511.8098793,
                "YCOORD": 247335.86995488001,
                "SITE_USE": "Active",
                "PRJ_ENRLLMNT": null
            },
            "geometry": {
                "type": "Point",
                "coordinates": [
                    -122.326595385470497,
                    47.66827560714998
                ]
            }
        },
        {
            "type": "Feature",
            "properties": {
                "OBJECTID": 111,
                "TYPE": "Elementary",
                "SCHOOL": "JOHN MARSHALL",
                "ADDRESS": "520 NE Ravenna Blvd",
                "SE_ANNO_CAD_DATA": null,
                "NAME": "West Woodland (interim at John Marshall)",
                "GRADE": "K-5",
                "CITY": "Seattle",
                "ZIP": "98115",
                "PHONE": "(206)252-1600",
                "WEBSITE": "https://westwoodlandes.seattleschools.org/",
                "XCOORD": 1273629.4999011499,
                "YCOORD": 250587.70006539,
                "SITE_USE": "Interim",
                "PRJ_ENRLLMNT": null
            },
            "geometry": {
                "type": "Point",
                "coordinates": [
                    -122.322315348241446,
                    47.677248142266805
                ]
            }
        },
        {
            "type": "Feature",
            "properties": {
                "OBJECTID": 112,
                "TYPE": "Option Elementary",
                "SCHOOL": "SOUTH SHORE SCHOOL",
                "ADDRESS": "4800 S Henderson St",
                "SE_ANNO_CAD_DATA": null,
                "NAME": "South Shore K-8",
                "GRADE": "K-8",
                "CITY": "Seattle",
                "ZIP": "98118",
                "PHONE": "(206)252-7600",
                "WEBSITE": "http://southshorek8.seattleschools.org/",
                "XCOORD": 1284973.46015281,
                "YCOORD": 194368.40994513,
                "SITE_USE": "Active",
                "PRJ_ENRLLMNT": null
            },
            "geometry": {
                "type": "Point",
                "coordinates": [
                    -122.272009121328978,
                    47.523742947899436
                ]
            }
        },
        {
            "type": "Feature",
            "properties": {
                "OBJECTID": 113,
                "TYPE": "Option Elementary",
                "SCHOOL": "WEBSTER",
                "ADDRESS": "3014 NW 67th St",
                "SE_ANNO_CAD_DATA": null,
                "NAME": "Licton Springs K-8",
                "GRADE": "K-8",
                "CITY": "Seattle",
                "ZIP": "98117",
                "PHONE": "(206)743-3700",
                "WEBSITE": "https://lictonspringsk8.seattleschools.org/",
                "XCOORD": 1255395.8847936401,
                "YCOORD": 251113.83221522,
                "SITE_USE": "Active",
                "PRJ_ENRLLMNT": null
            },
            "geometry": {
                "type": "Point",
                "coordinates": [
                    -122.396358683487634,
                    47.677699091222685
                ]
            }
        },
        {
            "type": "Feature",
            "properties": {
                "OBJECTID": 114,
                "TYPE": "Elementary",
                "SCHOOL": "MAGNOLIA",
                "ADDRESS": "2418 28th Ave W",
                "SE_ANNO_CAD_DATA": null,
                "NAME": "Magnolia",
                "GRADE": "K-5",
                "CITY": "Seattle",
                "ZIP": "98199",
                "PHONE": "(206)743-3800",
                "WEBSITE": "https://magnoliaes.seattleschools.org/",
                "XCOORD": 1256041.7001030601,
                "YCOORD": 237567.69985871,
                "SITE_USE": "Active",
                "PRJ_ENRLLMNT": null
            },
            "geometry": {
                "type": "Point",
                "coordinates": [
                    -122.392623573052404,
                    47.640606118165714
                ]
            }
        },
        {
            "type": "Feature",
            "properties": {
                "OBJECTID": 115,
                "TYPE": "Elementary",
                "SCHOOL": "WEST WOODLAND ELEM",
                "ADDRESS": "5601 4th Ave NW",
                "SE_ANNO_CAD_DATA": null,
                "NAME": null,
                "GRADE": "K-5",
                "CITY": "Seattle",
                "ZIP": "98107",
                "PHONE": "(206)252-1600",
                "WEBSITE": "http://westwoodlandes.seattleschools.org/",
                "XCOORD": 1263746.1200616399,
                "YCOORD": 248355.77998856001,
                "SITE_USE": "Active",
                "PRJ_ENRLLMNT": null
            },
            "geometry": {
                "type": "Point",
                "coordinates": [
                    -122.362246781597591,
                    47.670599303694132
                ]
            }
        },
        {
            "type": "Feature",
            "properties": {
                "OBJECTID": 116,
                "TYPE": "Option High School",
                "SCHOOL": "SOUTH LAKE HIGH SCHOOL",
                "ADDRESS": "8601 Rainier Ave S",
                "SE_ANNO_CAD_DATA": null,
                "NAME": "Alan T. Sugiyama",
                "GRADE": "9-12",
                "CITY": "Seattle",
                "ZIP": "98118",
                "PHONE": "(206)252-6600",
                "WEBSITE": "https://sugiyamahs.seattleschools.org/",
                "XCOORD": 1285252.9700924801,
                "YCOORD": 194918.31993455,
                "SITE_USE": "Active",
                "PRJ_ENRLLMNT": null
            },
            "geometry": {
                "type": "Point",
                "coordinates": [
                    -122.270919626841035,
                    47.525264577318922
                ]
            }
        },
        {
            "type": "Feature",
            "properties": {
                "OBJECTID": 117,
                "TYPE": "Elementary",
                "SCHOOL": "DANIEL BAGLEY ELEM",
                "ADDRESS": "7821 Stone Ave N",
                "SE_ANNO_CAD_DATA": null,
                "NAME": "Daniel Bagley",
                "GRADE": "K-5",
                "CITY": "Seattle",
                "ZIP": "98103",
                "PHONE": "(206)252-5110",
                "WEBSITE": "https://bagleyes.seattleschools.org/",
                "XCOORD": 1268771.17005089,
                "YCOORD": 254005.60005370999,
                "SITE_USE": "Active",
                "PRJ_ENRLLMNT": null
            },
            "geometry": {
                "type": "Point",
                "coordinates": [
                    -122.342304871585455,
                    47.686357066232432
                ]
            }
        },
        {
            "type": "Feature",
            "properties": {
                "OBJECTID": 118,
                "TYPE": "Elementary",
                "SCHOOL": "AFRICAN AMERICAN ACADEMY",
                "ADDRESS": "8311 Beacon Ave S",
                "SE_ANNO_CAD_DATA": null,
                "NAME": "Rising Star",
                "GRADE": "K-5",
                "CITY": "Seattle",
                "ZIP": "98118",
                "PHONE": "(206)252-7500",
                "WEBSITE": "https://risingstares.seattleschools.org/",
                "XCOORD": 1280804.6899470501,
                "YCOORD": 196420.06004129001,
                "SITE_USE": "Active",
                "PRJ_ENRLLMNT": null
            },
            "geometry": {
                "type": "Point",
                "coordinates": [
                    -122.289035507289896,
                    47.529151629307869
                ]
            }
        }
    ]
}